{"data": [{"LATITUDE": 26.749418, "LONGITUDE": 83.399814, "NAME": "timoneer hospital", "Address": "Gorakhpur UP", "BED": 100}, {"LATITUDE": 26.739418, "LONGITUDE": 83.389814, "NAME": "Amit", "Address": "Gorakhpur UP", "BED": 102}, {"LATITUDE": 26.732722, "LONGITUDE": 83.43133, "NAME": "Shree Hospital", "Address": "B925 Divya nagar Gorakhpur 273010"}, {"LATITUDE": 26.740843, "LONGITUDE": 83.373103, "NAME": "Aryan Hospital", "Address": "Gorakhpur UP"}, {"LATITUDE": 26.735716, "LONGITUDE": 83.381173, "NAME": "Shahi Global Hospital", "Address": "Buddha Vihar part A Indranagar"}, {"LATITUDE": 26.792088, "LONGITUDE": 83.41082, "NAME": "Fatima Hospital", "Address": "Padari Bazar Gorakhpur"}, {"LATITUDE": 26.751952, "LONGITUDE": 83.366684, "NAME": "Star Hospital Pvt Ltd", "Address": "Bank road golghar gorakhpur"}, {"LATITUDE": 26.771045, "LONGITUDE": 83.365005, "NAME": "Jivan Jyoti Hospital", "Address": "Bobina road gorakhpur"}, {"LATITUDE": 26.742606, "LONGITUDE": 83.37954, "NAME": "Rachit Hospital", "Address": "NH 28 Bansgaon Daudpur"}, {"LATITUDE": 26.770125, "LONGITUDE": 83.360542, "NAME": "JP Hospital", "Address": "Arya Nagar Gorakhpur"}, {"LATITUDE": 26.745365, "LONGITUDE": 83.367524, "NAME": "Life Care Hospital", "Address": "Civil line gorakhpur"}, {"LATITUDE": 26.756019, "LONGITUDE": 83.378682, "NAME": "Shambhavi Hospital", "Address": "Park Road Civil Line"}, {"LATITUDE": 26.729584, "LONGITUDE": 83.423402, "NAME": "Shubham Hospital", "Address": "Mahadevpuram gorakhpur"}, {"LATITUDE": 26.745294, "LONGITUDE": 83.359855, "NAME": "Srvang Hospital", "Address": "Betiahata gorakhpur"}, {"LATITUDE": 26.753295, "LONGITUDE": 83.365638, "NAME": "Agarawal Orthopaedic Hospital", "Address": "Jubilee road gorakhpur UP"}, {"LATITUDE": 26.749428, "LONGITUDE": 83.365635, "NAME": "Netaji Subash chandra", "Address": "Reti chowk miya bazar"}, {"LATITUDE": 26.741234, "LONGITUDE": 83.364315, "NAME": "Nangaila Hospital", "Address": "Raigunj gorakhpur UP"}, {"LATITUDE": 26.746745, "LONGITUDE": 83.37954, "NAME": "Pulse Hospital", "Address": "Basgaon colony kalepur"}, {"LATITUDE": 26.796923, "LONGITUDE": 83.382756, "NAME": "Divyaman Hospital", "Address": "Bargadwa baipas road raptinagar P4"}, {"LATITUDE": 26.811994, "LONGITUDE": 83.398948, "NAME": "Nehru Hospital", "Address": "Gorakhpur UP"}, {"LATITUDE": 29.478995, "LONGITUDE": 77.696857, "NAME": "Distt. Hospital", "Address": "Muzaffarnagar"}, {"LATITUDE": 29.478293, "LONGITUDE": 77.695944, "NAME": "Distt. Women Hospital", "Address": "Muzaffarnagar"}, {"LATITUDE": 29.95189, "LONGITUDE": 78.157904, "NAME": "Mela Hospital", "Address": "Haridwar"}, {"LATITUDE": 29.951146, "LONGITUDE": 78.158195, "NAME": "TB Hospital", "Address": "Haridwar"}, {"LATITUDE": 29.951079, "LONGITUDE": 78.161588, "NAME": "Harimilap Mission Government Hospital", "Address": "Haridwar"}, {"LATITUDE": 29.950568, "LONGITUDE": 78.161019, "NAME": "Chainray Jila Mahila Hospital", "Address": "Haridwar"}, {"LATITUDE": 29.933701, "LONGITUDE": 78.139885, "NAME": "ESI Dispensary", "Address": "Haridwar"}, {"LATITUDE": 29.905818, "LONGITUDE": 78.133883, "NAME": "S.R. Medicity", "Address": "Haridwar"}, {"LATITUDE": 29.967416, "LONGITUDE": 78.062546, "NAME": "Metro Hospital & Heart Institute", "Address": "Haridwar"}, {"LATITUDE": 29.87103, "LONGITUDE": 77.872981, "NAME": "Happy Family Hospital", "Address": "Roorkee"}, {"LATITUDE": 29.882444, "LONGITUDE": 77.879804, "NAME": "Civil Hospital", "Address": "Roorkee"}, {"LATITUDE": 29.928675, "LONGITUDE": 77.833102, "NAME": "Aarogyam Hospital", "Address": "Roorkee"}, {"LATITUDE": 29.899568, "LONGITUDE": 77.95872, "NAME": "Quadra Institute of Ayurved", "Address": "Haridwar"}, {"LATITUDE": 29.483081, "LONGITUDE": 77.701815, "NAME": "ILCC Hospital", "Address": "Muzaffarnagar"}, {"LATITUDE": 29.471254, "LONGITUDE": 77.700615, "NAME": "Ganga Ram Hospital", "Address": "Muzaffarnagar"}, {"LATITUDE": 29.469807, "LONGITUDE": 77.699746, "NAME": "Daurala Hospital", "Address": "Muzaffarnagar"}, {"LATITUDE": 29.474023, "LONGITUDE": 77.705211, "NAME": "Shanti Madan Hospital", "Address": "Muzaffarnagar"}, {"LATITUDE": 29.473079, "LONGITUDE": 77.705655, "NAME": "Taneja Hospital", "Address": "Muzaffarnagar"}, {"LATITUDE": 29.467122, "LONGITUDE": 77.704094, "NAME": "Vardhman Hospital", "Address": "Muzaffarnagar"}, {"LATITUDE": 29.473357, "LONGITUDE": 77.711208, "NAME": "Jeevan Prakash Hospital", "Address": "Muzaffarnagar"}, {"LATITUDE": 29.476772, "LONGITUDE": 77.713853, "NAME": "Sanjeevani Hospital", "Address": "Muzaffarnagar"}, {"LATITUDE": 29.473293, "LONGITUDE": 77.719125, "NAME": "Kisaan Hospital", "Address": "Muzaffarnagar"}, {"LATITUDE": 29.473108, "LONGITUDE": 77.720689, "NAME": "Anand Hospital", "Address": "Muzaffarnagar"}, {"LATITUDE": 29.45869, "LONGITUDE": 77.71673, "NAME": "Vashishtha Hospital", "Address": "Muzaffarnagar"}, {"LATITUDE": 29.453858, "LONGITUDE": 77.723028, "NAME": "Max Super Speciality Hospital", "Address": "Muzaffarnagar"}, {"LATITUDE": 29.461604, "LONGITUDE": 77.708234, "NAME": "Garg Hospital", "Address": "Muzaffarnagar"}, {"LATITUDE": 29.458298, "LONGITUDE": 77.705905, "NAME": "Nirwal Multispeciality Hospital", "Address": "Muzaffarnagar"}, {"LATITUDE": 29.455829, "LONGITUDE": 77.706361, "NAME": "Saroj Hospital", "Address": "Muzaffarnagar"}, {"LATITUDE": 29.453518, "LONGITUDE": 77.705606, "NAME": "Jyoti Hospital", "Address": "Muzaffarnagar"}, {"LATITUDE": 29.473187, "LONGITUDE": 77.740196, "NAME": "Evan Multispeciality Hospital & Research Institute", "Address": "Muzaffarnagar"}, {"LATITUDE": 29.99428, "LONGITUDE": 77.543576, "NAME": "Life Care Hospital", "Address": "Saharanpur"}, {"LATITUDE": 29.97306, "LONGITUDE": 77.544227, "NAME": "Jain Charitable Hospital", "Address": "Saharanpur"}, {"LATITUDE": 29.971931, "LONGITUDE": 77.534331, "NAME": "Urmila Hospital", "Address": "Saharanpur"}, {"LATITUDE": 29.96902, "LONGITUDE": 77.551602, "NAME": "Santosh Hospital", "Address": "Saharanpur"}, {"LATITUDE": 29.96587, "LONGITUDE": 77.540329, "NAME": "S.B.D. Hospital", "Address": "Saharanpur"}, {"LATITUDE": 29.968961, "LONGITUDE": 77.552228, "NAME": "Tarawati Super Speciality Hospital", "Address": "Saharanpur"}, {"LATITUDE": 29.954848, "LONGITUDE": 77.556618, "NAME": "Swastik Hospital & IVF Centre", "Address": "Saharanpur"}, {"LATITUDE": 29.953622, "LONGITUDE": 77.560081, "NAME": "SBDB Distt. Hospital Saharanpur", "Address": "Saharanpur"}, {"LATITUDE": 29.952161, "LONGITUDE": 77.550526, "NAME": "Singhal Nursing Home", "Address": "Saharanpur"}, {"LATITUDE": 29.952161, "LONGITUDE": 77.550526, "NAME": "Pegasus Hospital", "Address": "Saharanpur"}, {"LATITUDE": 29.943116, "LONGITUDE": 77.543047, "NAME": "Saksham Hospital", "Address": "Saharanpur"}, {"LATITUDE": 29.943097, "LONGITUDE": 77.543607, "NAME": "Care Hospital", "Address": "Saharanpur"}, {"LATITUDE": 29.942158, "LONGITUDE": 77.537701, "NAME": "Sahiram Hospital", "Address": "Saharanpur"}, {"LATITUDE": 29.928198, "LONGITUDE": 77.528497, "NAME": "Astha Hospital", "Address": "Saharanpur"}, {"LATITUDE": 29.906299, "LONGITUDE": 77.515404, "NAME": "Medigram Hospital", "Address": "Saharanpur"}, {"LATITUDE": 29.497171, "LONGITUDE": 79.481408, "NAME": "Government Hospital Garampani", "Address": "Nainital"}, {"LATITUDE": 29.496132, "LONGITUDE": 79.477744, "NAME": "CHC Garampani", "Address": "Nainital"}, {"LATITUDE": 29.39281, "LONGITUDE": 79.505446, "NAME": "TB Hospital", "Address": "Nainital"}, {"LATITUDE": 29.388054, "LONGITUDE": 79.514329, "NAME": "Shri Life Care Clinic", "Address": "Nainital"}, {"LATITUDE": 29.383004, "LONGITUDE": 79.465964, "NAME": "Ramasay Hospital", "Address": "Nainital"}, {"LATITUDE": 29.390931, "LONGITUDE": 79.467437, "NAME": "BVM Dispensary", "Address": "Nainital"}, {"LATITUDE": 29.390131, "LONGITUDE": 79.460112, "NAME": "Sitapur Eye Hospital", "Address": "Nainital"}, {"LATITUDE": 29.391547, "LONGITUDE": 79.457508, "NAME": "Sitapur Hospital", "Address": "Nainital"}, {"LATITUDE": 29.392811, "LONGITUDE": 79.453765, "NAME": "B.D Pandey Hospital", "Address": "Nainital"}, {"LATITUDE": 29.407782, "LONGITUDE": 79.454103, "NAME": "Asha Dental Hospital", "Address": "Nainital"}, {"LATITUDE": 29.24316, "LONGITUDE": 79.53551, "NAME": "Brij Lal Hospital & Research Centre", "Address": "Nainital"}, {"LATITUDE": 29.236359, "LONGITUDE": 79.532898, "NAME": "Bombay Hospital", "Address": "Nainital"}, {"LATITUDE": 29.229962, "LONGITUDE": 79.532418, "NAME": "Krishna Hospital & Research Centre", "Address": "Nainital"}, {"LATITUDE": 29.226178, "LONGITUDE": 79.530752, "NAME": "Shri Ram Hospital", "Address": "Nainital"}, {"LATITUDE": 29.207105, "LONGITUDE": 79.517637, "NAME": "Sanjivani Hospital", "Address": "Nainital"}, {"LATITUDE": 29.221808, "LONGITUDE": 79.511244, "NAME": "Mattrix Hospital & Accident Care", "Address": "Haldwani"}, {"LATITUDE": 29.209265, "LONGITUDE": 78.936292, "NAME": "Sidhhi Vinayak Hospital ", "Address": "Kashipur"}, {"LATITUDE": 29.20804, "LONGITUDE": 78.937189, "NAME": "Nav Jeevan Multispeciality Hospital", "Address": "Kashipur"}, {"LATITUDE": 29.205143, "LONGITUDE": 78.942619, "NAME": "Pragati Hospital", "Address": "Kashipur"}, {"LATITUDE": 29.204381, "LONGITUDE": 78.943278, "NAME": "Navya Hospital", "Address": "Kashipur"}, {"LATITUDE": 29.204381, "LONGITUDE": 78.943278, "NAME": "Prakash Hospital", "Address": "Kashipur"}, {"LATITUDE": 29.205036, "LONGITUDE": 78.950582, "NAME": "Kasturi Devi Hospital", "Address": "Kashipur"}, {"LATITUDE": 29.204629, "LONGITUDE": 78.952924, "NAME": "Richhariya Hospital Ltd.", "Address": "Kashipur"}, {"LATITUDE": 29.204982, "LONGITUDE": 78.954333, "NAME": "SAHOTA Super Speciality Hospital", "Address": "Kashipur"}, {"LATITUDE": 29.228231, "LONGITUDE": 78.969855, "NAME": "Govil Superspeciality Hospital", "Address": "Kashipur"}, {"LATITUDE": 29.226858, "LONGITUDE": 78.972159, "NAME": "RK Hospital", "Address": "Kashipur"}, {"LATITUDE": 29.222174, "LONGITUDE": 78.966572, "NAME": "Gahtori Hospital", "Address": "Kashipur"}, {"LATITUDE": 29.219751, "LONGITUDE": 78.9665578, "NAME": "Rawat Diagnostic Centre", "Address": "Kashipur"}, {"LATITUDE": 29.219485, "LONGITUDE": 78.965679, "NAME": "MP Memorial Hospital", "Address": "Kashipur"}, {"LATITUDE": 29.21934, "LONGITUDE": 78.963889, "NAME": "L D Bhatt Govt. Hospital", "Address": "Kashipur"}, {"LATITUDE": 29.216051, "LONGITUDE": 78.9639914, "NAME": "Narender Heart Centre", "Address": "Kashipur"}, {"LATITUDE": 29.210661, "LONGITUDE": 78.961841, "NAME": "Chamunda Hospital", "Address": "Kashipur"}, {"LATITUDE": 29.210661, "LONGITUDE": 78.961841, "NAME": "Dr. K.K. Agrawal's Children's Hospital", "Address": "Kashipur"}, {"LATITUDE": 30.129798, "LONGITUDE": 78.323772, "NAME": "Dharmarth Chikitsalaya ", "Address": "Rishikesh"}, {"LATITUDE": 30.124339, "LONGITUDE": 78.312457, "NAME": "Sivananda Charitable Hospital", "Address": "Rishikesh"}, {"LATITUDE": 30.122267, "LONGITUDE": 78.320846, "NAME": "Mateshwari General Hospital", "Address": "Rishikesh"}, {"LATITUDE": 30.115851, "LONGITUDE": 78.29024, "NAME": "Kandari Hospital", "Address": "Rishikesh"}, {"LATITUDE": 30.113733, "LONGITUDE": 78.292475, "NAME": "Uttranchal Heart Care Centre", "Address": "Rishikesh"}, {"LATITUDE": 30.112136, "LONGITUDE": 78.293513, "NAME": "Sandhu Hospital", "Address": "Rishikesh"}, {"LATITUDE": 30.111986, "LONGITUDE": 78.294076, "NAME": "Joshi Hospital", "Address": "Rishikesh"}, {"LATITUDE": 30.109415, "LONGITUDE": 78.296113, "NAME": "SPS Govt. Hospital", "Address": "Rishikesh"}, {"LATITUDE": 30.106774, "LONGITUDE": 78.2908, "NAME": "Prasad Hospital", "Address": "Rishikesh"}, {"LATITUDE": 30.1459, "LONGITUDE": 78.295641, "NAME": "Dr. Kohli Hospital", "Address": "Rishikesh"}, {"LATITUDE": 30.105279, "LONGITUDE": 78.303184, "NAME": "Nirmal Ashram Hospital", "Address": "Rishikesh"}, {"LATITUDE": 30.098311, "LONGITUDE": 78.287698, "NAME": "Bhardwaj Hospital", "Address": "Rishikesh"}, {"LATITUDE": 30.081357, "LONGITUDE": 78.285726, "NAME": "AIIMS Rishikesh", "Address": "Rishikesh"}, {"LATITUDE": 30.069742, "LONGITUDE": 78.281868, "NAME": "Navjeevanam Ayurvedic Hospital", "Address": "Rishikesh"}, {"LATITUDE": 30.074481, "LONGITUDE": 78.260203, "NAME": "P.H.C Govt. Hospital", "Address": "Rishikesh"}, {"LATITUDE": 29.635874, "LONGITUDE": 79.665966, "NAME": "AyurVAID Kalmatia", "Address": "Almora"}, {"LATITUDE": 29.626449, "LONGITUDE": 79.672478, "NAME": "Uttrayan Hospital", "Address": "Almora"}, {"LATITUDE": 29.616996, "LONGITUDE": 79.659441, "NAME": "CMO Almora", "Address": "Almora"}, {"LATITUDE": 29.607623, "LONGITUDE": 79.644349, "NAME": "Almora Medical College", "Address": "Almora"}, {"LATITUDE": 29.605923, "LONGITUDE": 79.645266, "NAME": "Govt. Medical College, Almora", "Address": "Almora"}, {"LATITUDE": 29.602982, "LONGITUDE": 79.652832, "NAME": "M N Srivastava Hospital", "Address": "Almora"}, {"LATITUDE": 29.59901, "LONGITUDE": 79.658596, "NAME": "Pooja Patient Care Centre", "Address": "Almora"}, {"LATITUDE": 29.598823, "LONGITUDE": 79.657945, "NAME": "Om Shanti Paediatric Clinic", "Address": "Almora"}, {"LATITUDE": 29.598172, "LONGITUDE": 79.658858, "NAME": "Distt. Hospital Almora", "Address": "Almora"}, {"LATITUDE": 29.588229, "LONGITUDE": 79.646186, "NAME": "Cantt. Dispensary", "Address": "Almora"}, {"LATITUDE": 29.593565, "LONGITUDE": 79.638078, "NAME": "Pooja Diagnostic Centre", "Address": "Almora"}, {"LATITUDE": 29.593511, "LONGITUDE": 79.638083, "NAME": "Idbo", "Address": "Almora"}, {"LATITUDE": 29.593038, "LONGITUDE": 79.638041, "NAME": "Goerdhan Tiwari Govt. Base Hospital", "Address": "Almora"}, {"LATITUDE": 29.592871, "LONGITUDE": 79.638618, "NAME": "Emergency Ward", "Address": "Almora"}, {"LATITUDE": 29.584416, "LONGITUDE": 79.640838, "NAME": "Super Speciality Hospital & Home ", "Address": "Almora"}, {"LATITUDE": 29.582415, "LONGITUDE": 79.641385, "NAME": "The Leprosy Mission Hospital & Home", "Address": "Almora"}, {"LATITUDE": 28.993079, "LONGITUDE": 79.402109, "NAME": "Jawahar Lal Nehru Distt. Hospital", "Address": "Rudrapur"}, {"LATITUDE": 28.987022, "LONGITUDE": 79.400971, "NAME": "Harisar Hospital Child & Maternity", "Address": "Rudrapur"}, {"LATITUDE": 28.984843, "LONGITUDE": 79.402781, "NAME": "ESI Dispensary Rudrapur", "Address": "Rudrapur"}, {"LATITUDE": 28.984632, "LONGITUDE": 79.400434, "NAME": "Jeewan Deep Hospital", "Address": "Rudrapur"}, {"LATITUDE": 28.984415, "LONGITUDE": 79.400509, "NAME": "Siddhi Vinayak Hospital", "Address": "Rudrapur"}, {"LATITUDE": 28.983024, "LONGITUDE": 79.397481, "NAME": "Arora Hospital & Heart Care Centre", "Address": "Rudrapur"}, {"LATITUDE": 28.981962, "LONGITUDE": 79.399482, "NAME": "Futela Hospital", "Address": "Rudrapur"}, {"LATITUDE": 28.981947, "LONGITUDE": 79.397724, "NAME": "Life Line Hospital", "Address": "Rudrapur"}, {"LATITUDE": 28.981924, "LONGITUDE": 79.3977, "NAME": "Shree Ram Eye Care & Nursing Home", "Address": "Rudrapur"}, {"LATITUDE": 28.981277, "LONGITUDE": 79.397596, "NAME": "Atul Hospital", "Address": "Rudrapur"}, {"LATITUDE": 28.981392, "LONGITUDE": 79.397813, "NAME": "Shubham Surgical Hospital", "Address": "Rudrapur"}, {"LATITUDE": 28.981414, "LONGITUDE": 79.399298, "NAME": "B.D. Pathak Hospital", "Address": "Rudrapur"}, {"LATITUDE": 28.981046, "LONGITUDE": 79.401271, "NAME": "Surabhi Hospit", "Address": "Rudrapur"}, {"LATITUDE": 28.990172, "LONGITUDE": 79.388936, "NAME": "Pandey Hospital", "Address": "Rudrapur"}, {"LATITUDE": 28.9272095, "LONGITUDE": 79.394352, "NAME": "Amrit Hospital", "Address": "Rudrapur"}, {"LATITUDE": 28.974678, "LONGITUDE": 79.388166, "NAME": "Charvi Hospital", "Address": "Rudrapur"}, {"LATITUDE": 28.974756, "LONGITUDE": 79.386282, "NAME": "Sanjivini Hospital", "Address": "Rudrapur"}, {"LATITUDE": 28.977124, "LONGITUDE": 79.384311, "NAME": "Mahajan Hospital", "Address": "Rudrapur"}, {"LATITUDE": 28.979369, "LONGITUDE": 79.367488, "NAME": "Sai Hospital & Diagnostic Centre", "Address": "Rudrapur"}, {"LATITUDE": 28.957387, "LONGITUDE": 79.382321, "NAME": "Narayan Hospital And Trauma Centre", "Address": "Rudrapur"}, {"LATITUDE": 28.965466, "LONGITUDE": 79.406801, "NAME": "Maharaj Agrasen Hospital", "Address": "Rudrapur"}, {"LATITUDE": 30.456119, "LONGITUDE": 78.040892, "NAME": "Lions Club Hospital", "Address": "Mussoorie"}, {"LATITUDE": 30.450551, "LONGITUDE": 78.060936, "NAME": "ITBP ACADEMY ADM WING", "Address": "Mussoorie"}, {"LATITUDE": 30.460341, "LONGITUDE": 78.065151, "NAME": "MAX OPD", "Address": "Mussoorie"}, {"LATITUDE": 30.46122, "LONGITUDE": 78.068964, "NAME": "ESI Dispensary Mussoorie", "Address": "Mussoorie"}, {"LATITUDE": 30.461934, "LONGITUDE": 78.070819, "NAME": "Woman Hospital", "Address": "Mussoorie"}, {"LATITUDE": 30.460804, "LONGITUDE": 78.075779, "NAME": "Hill Pet Care And Surgery Centre", "Address": "Mussoorie"}, {"LATITUDE": 30.460475, "LONGITUDE": 78.071797, "NAME": "ST Marys Hospital", "Address": "Mussoorie"}, {"LATITUDE": 30.458773, "LONGITUDE": 78.073813, "NAME": "Millitary Hospital", "Address": "Mussoorie"}, {"LATITUDE": 30.454184, "LONGITUDE": 78.082175, "NAME": "Vaishya Hospital", "Address": "Mussoorie"}, {"LATITUDE": 30.459242, "LONGITUDE": 78.095321, "NAME": "Landour Community Hospital", "Address": "Mussoorie"}, {"LATITUDE": 30.457954, "LONGITUDE": 78.092109, "NAME": "Uttranchal Diagnostic Centre", "Address": "Mussoorie"}, {"LATITUDE": 30.453677, "LONGITUDE": 78.088563, "NAME": "Civil Hospital", "Address": "Mussoorie"}, {"LATITUDE": 30.445172, "LONGITUDE": 78.088638, "NAME": "Allen Health Care", "Address": "Mussoorie"}, {"LATITUDE": 30.816414, "LONGITUDE": 77.736329, "NAME": "PHS Hospital", "Address": "Chakrata"}, {"LATITUDE": 30.719288, "LONGITUDE": 77.856418, "NAME": "Govt. Hospital", "Address": "Chakrata"}, {"LATITUDE": 30.689579, "LONGITUDE": 77.766349, "NAME": "ANM Centre", "Address": "Chakrata"}, {"LATITUDE": 30.696203, "LONGITUDE": 77.881245, "NAME": "Community Health Centre", "Address": "Chakrata"}, {"LATITUDE": 30.656634, "LONGITUDE": 77.854977, "NAME": "Red Cross", "Address": "Chakrata"}, {"LATITUDE": 30.610713, "LONGITUDE": 77.837069, "NAME": "CHC Hospital Suryo", "Address": "Chakrata"}, {"LATITUDE": 30.614534, "LONGITUDE": 77.781939, "NAME": "Tons Project Hospital", "Address": "Chakrata"}, {"LATITUDE": 30.611537, "LONGITUDE": 77.875235, "NAME": "Govt. Hospital", "Address": "Chakrata"}, {"LATITUDE": 30.61077, "LONGITUDE": 77.875933, "NAME": "Coommunity Health Centre, Sahiya", "Address": "Chakrata"}, {"LATITUDE": 30.488342, "LONGITUDE": 77.796945, "NAME": "Kalinidi Hospital", "Address": "Chakrata"}, {"LATITUDE": 30.478811, "LONGITUDE": 77.782554, "NAME": "Rapgay Hospital", "Address": "Chakrata"}, {"LATITUDE": 30.464894, "LONGITUDE": 77.763758, "NAME": "Chambail Hospital", "Address": "Chakrata"}, {"LATITUDE": 30.365515, "LONGITUDE": 77.845393, "NAME": "Joshi Multispeciality Hospitl", "Address": "Chakrata"}, {"LATITUDE": 30.360879, "LONGITUDE": 77.849197, "NAME": "Medicare Multipeciality Hospital", "Address": "Chakrata"}, {"LATITUDE": 29.547318, "LONGITUDE": 79.111251, "NAME": "Dr. S N Yadav Hospital", "Address": "Ramnagar"}, {"LATITUDE": 29.395649, "LONGITUDE": 79.124851, "NAME": "Sanjeevani Hospital", "Address": "Ramnagar"}, {"LATITUDE": 29.387367, "LONGITUDE": 79.12108, "NAME": "Brijesh Hospital", "Address": "Ramnagar"}, {"LATITUDE": 29.392732, "LONGITUDE": 79.124383, "NAME": "Ram Dutt Govt. Hospital, Ramnagar", "Address": "Ramnagar"}, {"LATITUDE": 29.392157, "LONGITUDE": 79.124571, "NAME": "Govt. Hospital", "Address": "Ramnagar"}, {"LATITUDE": 29.392046, "LONGITUDE": 79.124988, "NAME": "Ram Dutt Joshi Govt. Combined Hospital, Ramnagar", "Address": "Ramnagar"}, {"LATITUDE": 29.394209, "LONGITUDE": 79.127999, "NAME": "Patanjali Aarogya Kendra", "Address": "Ramnagar"}, {"LATITUDE": 29.386922, "LONGITUDE": 79.123045, "NAME": "Netra Jyoti Eye Hospital", "Address": "Ramnagar"}, {"LATITUDE": 29.351167, "LONGITUDE": 79.137095, "NAME": "Handicapp Centre at hanuman dham", "Address": "Ramnagar"}, {"LATITUDE": 29.276225, "LONGITUDE": 79.012955, "NAME": "Sankalp Hospital", "Address": "Ramnagar"}, {"LATITUDE": 29.227942, "LONGITUDE": 78.970006, "NAME": "Govil Superspeciality Hospital", "Address": "Ramnagar"}, {"LATITUDE": 29.225938, "LONGITUDE": 78.971926, "NAME": "RK Hospital", "Address": "Ramnagar"}, {"LATITUDE": 29.222645, "LONGITUDE": 78.966842, "NAME": "Gahtori Hospital", "Address": "Ramnagar"}, {"LATITUDE": 29.220048, "LONGITUDE": 78.965736, "NAME": "MP Memorial Hospital", "Address": "Ramnagar"}, {"LATITUDE": 29.215896, "LONGITUDE": 78.964297, "NAME": "Narender Heart Centre", "Address": "Ramnagar"}, {"LATITUDE": 29.212767, "LONGITUDE": 78.963489, "NAME": "Jain Hospital", "Address": "Ramnagar"}, {"LATITUDE": 29.210521, "LONGITUDE": 78.961414, "NAME": "Veena Joshi Hospital", "Address": "Ramnagar"}, {"LATITUDE": 29.208453, "LONGITUDE": 78.937068, "NAME": "Navjeevan Multispeciality Hospital", "Address": "Ramnagar"}, {"LATITUDE": 30.323994, "LONGITUDE": 79.381302, "NAME": "Hospital", "Address": "Chamoli"}, {"LATITUDE": 30.410557, "LONGITUDE": 79.320299, "NAME": "Distt. Hospital", "Address": "Chamoli"}, {"LATITUDE": 30.407636, "LONGITUDE": 79.320184, "NAME": "Guru Kirpa Clinic", "Address": "Chamoli"}, {"LATITUDE": 30.403937, "LONGITUDE": 79.331806, "NAME": "Prathamik Swasthya Kendra", "Address": "Chamoli"}, {"LATITUDE": 30.401562, "LONGITUDE": 79.330717, "NAME": "Sayana Medical", "Address": "Chamoli"}, {"LATITUDE": 30.299767, "LONGITUDE": 79.263242, "NAME": "ECHS Poly Clinic", "Address": "Chamoli"}, {"LATITUDE": 30.267168, "LONGITUDE": 79.215955, "NAME": "Govt. Hospital", "Address": "Chamoli"}, {"LATITUDE": 30.440072, "LONGITUDE": 79.205507, "NAME": "Ayurvedic Hospital Shrigarh Pokhri", "Address": "Chamoli"}, {"LATITUDE": 30.1428, "LONGITUDE": 79.36908, "NAME": "Govt. Hospital Narayanbagar", "Address": "Chamoli"}, {"LATITUDE": 30.070681, "LONGITUDE": 79.498334, "NAME": "Tharali Hospital", "Address": "Chamoli"}, {"LATITUDE": 30.011534, "LONGITUDE": 79.574249, "NAME": "Govt. Allopathic Hospital", "Address": "Chamoli"}, {"LATITUDE": 30.223874, "LONGITUDE": 78.805881, "NAME": "State Hospital", "Address": "Pauri Garhwal"}, {"LATITUDE": 30.222975, "LONGITUDE": 78.785018, "NAME": "Jaggi Medicos", "Address": "Pauri Garhwal"}, {"LATITUDE": 30.222878, "LONGITUDE": 78.784693, "NAME": "Govt. Combined Hospital", "Address": "Pauri Garhwal"}, {"LATITUDE": 30.223164, "LONGITUDE": 78.78883, "NAME": "V R Ayurved Multispeciality Hospital", "Address": "Pauri Garhwal"}, {"LATITUDE": 30.221771, "LONGITUDE": 78.779036, "NAME": "Chaudhari Hospital", "Address": "Pauri Garhwal"}, {"LATITUDE": 30.214967, "LONGITUDE": 78.790347, "NAME": "Garola Hospital", "Address": "Pauri Garhwal"}, {"LATITUDE": 30.225998, "LONGITUDE": 78.816322, "NAME": "Base Hospital  ", "Address": "Pauri Garhwal"}, {"LATITUDE": 30.18971, "LONGITUDE": 78.746546, "NAME": "Govt. Aaurvedic Hospital", "Address": "Pauri Garhwal"}, {"LATITUDE": 30.153099, "LONGITUDE": 78.77393, "NAME": "I Care Vision Centre", "Address": "Pauri Garhwal"}, {"LATITUDE": 30151127, "LONGITUDE": 78.773882, "NAME": "Distt. Hospital", "Address": "Pauri Garhwal"}, {"LATITUDE": 30.147352, "LONGITUDE": 78.77453, "NAME": "Life Line Medical ", "Address": "Pauri Garhwal"}, {"LATITUDE": 30.147879, "LONGITUDE": 78.775904, "NAME": "Dev Medical Pauri", "Address": "Pauri Garhwal"}, {"LATITUDE": 30.146985, "LONGITUDE": 78.77698, "NAME": "Dr. Nautiyal's Clinic", "Address": "Pauri Garhwal"}, {"LATITUDE": 30.146164, "LONGITUDE": 78.776946, "NAME": "CHC, Rikhnikhal", "Address": "Pauri Garhwal"}], "NAME": 100}